{"courses":[{"courseId":17321,"name":"Rye GC - Old","longitude":0.771753450228,"latitude":50.939132793492,"city":"Rye","state":"East Sussex","country":"GB","noOfHoles":18,"mensPar":68,"womensPar":68,"noOfTimesPlayed":1,"rounds":[4050754],"avgDriveHcp":6.33,"avgApproachHcp":5.18,"avgChipHcp":-10.02,"avgSandHcp":null,"avgPuttHcp":-4.38},{"courseId":17326,"name":"Cape Cornwall GC","longitude":-5.699420959706,"latitude":50.127289327406,"city":"Penzance","state":"Cornwall","country":"GB","noOfHoles":18,"mensPar":70,"womensPar":70,"noOfTimesPlayed":1,"rounds":[4958368],"avgDriveHcp":-4.45,"avgApproachHcp":-3.47,"avgChipHcp":-3.21,"avgSandHcp":null,"avgPuttHcp":-6.02},{"courseId":17823,"name":"Castle Royle GC","longitude":-0.816517249751,"latitude":51.500093150253,"city":"Reading","state":"Berkshire","country":"GB","noOfHoles":18,"mensPar":71,"womensPar":71,"noOfTimesPlayed":1,"rounds":[5532484],"avgDriveHcp":-8.53,"avgApproachHcp":-4.52,"avgChipHcp":6.6,"avgSandHcp":4.98,"avgPuttHcp":4.17},{"courseId":18829,"name":"Burhill GC - Old","longitude":-0.421353575338,"latitude":51.351306418109,"city":"Walton on Thames","state":"Surrey","country":"GB","noOfHoles":18,"mensPar":70,"womensPar":73,"noOfTimesPlayed":1,"rounds":[4495559],"avgDriveHcp":-20.26,"avgApproachHcp":-1.29,"avgChipHcp":-30,"avgSandHcp":-16.57,"avgPuttHcp":4.47},{"courseId":19541,"name":"Sunningdale GC - Old","longitude":-0.636586245422,"latitude":51.381742397764,"city":"Sunningdale","state":"Surrey","country":"GB","noOfHoles":18,"mensPar":70,"womensPar":73,"noOfTimesPlayed":3,"rounds":[4998326,4807572,4585422],"avgDriveHcp":0.29,"avgApproachHcp":-6.66,"avgChipHcp":-4.61,"avgSandHcp":-1.59,"avgPuttHcp":-2.49},{"courseId":19574,"name":"Saunton GC - East","longitude":-4.201564441475,"latitude":51.110230889072,"city":"Braunton","state":"Devon","country":"GB","noOfHoles":18,"mensPar":71,"womensPar":70,"noOfTimesPlayed":1,"rounds":[3797878],"avgDriveHcp":-5.15,"avgApproachHcp":-2.46,"avgChipHcp":-19.61,"avgSandHcp":null,"avgPuttHcp":2.37},{"courseId":19707,"name":"Berkshire GC - Blue","longitude":-0.713107245279,"latitude":51.383941232357,"city":"Ascot","state":"Berkshire","country":"GB","noOfHoles":18,"mensPar":71,"womensPar":72,"noOfTimesPlayed":1,"rounds":[4805188],"avgDriveHcp":-3.96,"avgApproachHcp":-2.53,"avgChipHcp":-1.53,"avgSandHcp":null,"avgPuttHcp":0.82},{"courseId":19835,"name":"Royal North Devon GC - 18","longitude":-4.223750937026,"latitude":51.055630287926,"city":"Bideford","state":"Devon","country":"GB","noOfHoles":18,"mensPar":72,"womensPar":73,"noOfTimesPlayed":12,"rounds":[5813864,5344592,5333676,5324737,5315536,5272951,5191003,5180601,5028095,4908702,4871554,4683653],"avgDriveHcp":1.32,"avgApproachHcp":-0.91,"avgChipHcp":-0.62,"avgSandHcp":-7.74,"avgPuttHcp":-0.36},{"courseId":29040,"name":"Saint Georges Hill GC - Red/Blue","longitude":-0.450704111303,"latitude":51.346947671075,"city":"Weybridge","state":"Surrey","country":"GB","noOfHoles":18,"mensPar":70,"womensPar":70,"noOfTimesPlayed":2,"rounds":[5856697,5731839],"avgDriveHcp":3.7,"avgApproachHcp":-3.12,"avgChipHcp":0.42,"avgSandHcp":3.31,"avgPuttHcp":-0.87}]}